{"type":"FeatureCollection","features":[{"type":"Feature","geometry":{"type":"Point","coordinates":[109.640270238742,-0.383635894395411,0]},"properties":{"name":"acap","styleUrl":"#style1","icon-offset":[0.5,0.5],"icon-offset-units":["fraction","fraction"],"icon":"http://download.avenza.com/images/pdfmaps_icons/red_pin.png","timestamp":"2022-12-06T14:22:18+07:00"}},{"type":"Feature","geometry":{"type":"Point","coordinates":[109.65554734692,-0.385130178183317,0]},"properties":{"name":"bg agun r1","styleUrl":"#style1","icon-offset":[0.5,0.5],"icon-offset-units":["fraction","fraction"],"icon":"http://download.avenza.com/images/pdfmaps_icons/red_pin.png","timestamp":"2022-12-08T13:23:32+07:00"}},{"type":"Feature","geometry":{"type":"Point","coordinates":[109.63971812278,-0.379284890368581,0]},"properties":{"name":"padi","styleUrl":"#style1","icon-offset":[0.5,0.5],"icon-offset-units":["fraction","fraction"],"icon":"http://download.avenza.com/images/pdfmaps_icons/red_pin.png","timestamp":"2022-12-06T15:09:33+07:00"}},{"type":"Feature","geometry":{"type":"Point","coordinates":[109.632918974385,-0.417417143471539,0]},"properties":{"name":"pintu air","styleUrl":"#style1","icon-offset":[0.5,0.5],"icon-offset-units":["fraction","fraction"],"icon":"http://download.avenza.com/images/pdfmaps_icons/red_pin.png","timestamp":"2022-12-10T11:11:04+07:00"}},{"type":"Feature","geometry":{"type":"Point","coordinates":[109.638139475137,-0.384777970612049,0]},"properties":{"name":"pojok","styleUrl":"#style1","icon-offset":[0.5,0.5],"icon-offset-units":["fraction","fraction"],"icon":"http://download.avenza.com/images/pdfmaps_icons/red_pin.png","timestamp":"2022-12-06T14:29:11+07:00"}},{"type":"Feature","geometry":{"type":"Point","coordinates":[109.637449393049,-0.384336202405393,0]},"properties":{"name":"pojok 2","styleUrl":"#style1","icon-offset":[0.5,0.5],"icon-offset-units":["fraction","fraction"],"icon":"http://download.avenza.com/images/pdfmaps_icons/red_pin.png","timestamp":"2022-12-06T14:31:28+07:00"}},{"type":"Feature","geometry":{"type":"Point","coordinates":[109.640954872593,-0.383223085664213,0]},"properties":{"name":"tanah pak dul","styleUrl":"#style1","icon-offset":[0.5,0.5],"icon-offset-units":["fraction","fraction"],"icon":"http://download.avenza.com/images/pdfmaps_icons/red_pin.png","timestamp":"2022-12-06T14:15:40+07:00"}},{"type":"Feature","geometry":{"type":"Point","coordinates":[109.648939187632,-0.395612865755595,0]},"properties":{"name":"Tanda tempat 10","styleUrl":"#style1","icon-offset":[0.5,0.5],"icon-offset-units":["fraction","fraction"],"icon":"http://download.avenza.com/images/pdfmaps_icons/red_pin.png","timestamp":"2022-12-10T13:32:58+07:00"}},{"type":"Feature","geometry":{"type":"Point","coordinates":[109.65102522634,-0.397300072945654,0]},"properties":{"name":"Tanda tempat 11","styleUrl":"#style1","icon-offset":[0.5,0.5],"icon-offset-units":["fraction","fraction"],"icon":"http://download.avenza.com/images/pdfmaps_icons/red_pin.png","timestamp":"2022-12-10T13:41:00+07:00"}},{"type":"Feature","geometry":{"type":"Point","coordinates":[109.640764771029,-0.382720129564404,0]},"properties":{"name":"Tanda tempat 5","styleUrl":"#style1","icon-offset":[0.5,0.5],"icon-offset-units":["fraction","fraction"],"icon":"http://download.avenza.com/images/pdfmaps_icons/red_pin.png","timestamp":"2022-12-06T15:06:56+07:00"}},{"type":"Feature","geometry":{"type":"Point","coordinates":[109.637398850173,-0.421079322695732,0]},"properties":{"name":"Tanda tempat 8","styleUrl":"#style1","icon-offset":[0.5,0.5],"icon-offset-units":["fraction","fraction"],"icon":"http://download.avenza.com/images/pdfmaps_icons/red_pin.png","timestamp":"2022-12-10T11:00:40+07:00"}}]}